[{"business name": "OG CENTRAL", "address": "6908 S CENTRAL AVE", "longitude": -118.25618, "latitude": 33.977237, "state": "California", "city": "LOS ANGELES", "zip_code": "90001", "ranking": 4.755356239115375, "rating": 4.85623003194888, "web_url": "https://weedmaps.com/dispensaries/og-central", "reviews_count": 313, "license type": "medical", "type": "dispensary", "retailer_services": ["storefront"], "date scraped": "11012019"}, {"business name": "Divine Choice Delivery", "address": "", "longitude": -118.256421, "latitude": 33.989345, "state": "California", "city": "South LA", "zip_code": "90001", "ranking": 3.841096839940952, "rating": 4.52, "web_url": "https://weedmaps.com/deliveries/divine-choice-delivery-9", "reviews_count": 25, "license type": "medical", "type": "delivery", "retailer_services": ["delivery"], "date scraped": "11012019"}, {"business name": "LA Collective", "address": "8826 South Vermont", "longitude": -118.291357, "latitude": 33.956804, "state": "California", "city": "Los Angeles", "zip_code": "90044", "ranking": 3.74882700382041, "rating": 4.20454545454545, "web_url": "https://weedmaps.com/dispensaries/crown-collective-la-south-la", "reviews_count": 44, "license type": "medical", "type": "dispensary", "retailer_services": ["storefront"], "date scraped": "11012019"}, {"business name": "Crown Collective LA", "address": "1319 E Florence Ave", "longitude": -118.251314, "latitude": 33.975134, "state": "California", "city": "Los Angeles", "zip_code": "90001", "ranking": 4.508312385798306, "rating": 4.60248447204969, "web_url": "https://weedmaps.com/dispensaries/crown-collective-la", "reviews_count": 483, "license type": "medical", "type": "dispensary", "retailer_services": ["storefront"], "date scraped": "11012019"}, {"business name": "Broadway LA Pharmacy - 30 CAP", "address": "9304 S. Broadway", "longitude": -118.277845, "latitude": 33.951708, "state": "CA", "city": "Los Angeles", "zip_code": "90003", "ranking": 4.663405635132129, "rating": 4.71902017291066, "web_url": "https://weedmaps.com/dispensaries/santa-ana-outrageousness", "reviews_count": 694, "license type": "medical", "type": "dispensary", "retailer_services": ["storefront"], "date scraped": "11012019"}, {"business name": "Omnia Industry", "address": "6420 Wilmington Ave.", "longitude": -118.238455, "latitude": 33.981046, "state": "California", "city": "Los Angeles", "zip_code": "90001", "ranking": 4.18246997338649, "rating": 4.47311827956989, "web_url": "https://weedmaps.com/dispensaries/omnia-industry-dispensary", "reviews_count": 93, "license type": "hybrid", "type": "dispensary", "retailer_services": ["storefront"], "date scraped": "11012019"}, {"business name": "Goblin Kingz", "address": "6507 S. Vermont Ave", "longitude": -118.291972, "latitude": 33.980313, "state": "California", "city": "Los Angeles", "zip_code": "90044", "ranking": 4.43829853673415, "rating": 4.85, "web_url": "https://weedmaps.com/dispensaries/goblin-kingz-1", "reviews_count": 40, "license type": "medical", "type": "dispensary", "retailer_services": ["storefront"], "date scraped": "11012019"}, {"business name": "420 Degrees", "address": "", "longitude": -118.264784, "latitude": 33.960414, "state": "CA", "city": "Los Angeles", "zip_code": "90001", "ranking": 4.21289348759669, "rating": 4.75757575757576, "web_url": "https://weedmaps.com/deliveries/420-degrees-10", "reviews_count": 33, "license type": "medical", "type": "delivery", "retailer_services": ["delivery"], "date scraped": "11012019"}, {"business name": "LA Green Run - South LA / Watts", "address": "", "longitude": -118.265803, "latitude": 33.945624, "state": "California", "city": "Los Angeles", "zip_code": "90003", "ranking": 4.19219123512561, "rating": 4.46181818181818, "web_url": "https://weedmaps.com/deliveries/la-green-run-south-la-2", "reviews_count": 110, "license type": "medical", "type": "delivery", "retailer_services": ["delivery"], "date scraped": "11012019"}, {"business name": "Hot Box 20 Cap Collective", "address": "6600 Holmes Ave", "longitude": -118.240861, "latitude": 33.979507, "state": "CA", "city": "Los Angeles", "zip_code": "90001", "ranking": 4.885723753509162, "rating": 4.90501089324619, "web_url": "https://weedmaps.com/dispensaries/vee-account", "reviews_count": 3213, "license type": "medical", "type": "dispensary", "retailer_services": ["storefront"], "date scraped": "11012019"}, {"business name": "Green Gears 20 Cap", "address": "10837 S. Vermont Avenue Unit C", "longitude": -118.292335, "latitude": 33.937498, "state": "California", "city": "Los Angeles", "zip_code": "90044", "ranking": 4.628023688038628, "rating": 4.67675159235669, "web_url": "https://weedmaps.com/dispensaries/green-gears-20-cap", "reviews_count": 628, "license type": "medical", "type": "dispensary", "retailer_services": ["storefront"], "date scraped": "11012019"}, {"business name": "Green Monkey", "address": "", "longitude": -118.265286, "latitude": 33.974724, "state": "California", "city": "Los Angeles", "zip_code": "90003", "ranking": 3.73434373948387, "rating": 3.99324324324324, "web_url": "https://weedmaps.com/deliveries/green-monkey", "reviews_count": 148, "license type": "medical", "type": "delivery", "retailer_services": ["delivery"], "date scraped": "11012019"}, {"business name": "High Roller - Grand Opening 10/23!", "address": "8100 S. Central Ave", "longitude": -118.256158, "latitude": 33.965518, "state": "California", "city": "Los Angeles", "zip_code": "90001", "ranking": 3.434212814080906, "rating": 5.0, "web_url": "https://weedmaps.com/dispensaries/high-roller", "reviews_count": 6, "license type": "medical", "type": "dispensary", "retailer_services": ["storefront"], "date scraped": "11012019"}, {"business name": "Take Flight LA", "address": "", "longitude": -118.292286, "latitude": 33.9733, "state": "California", "city": "Los Angeles", "zip_code": "90044", "ranking": 3.6647081135969, "rating": 4.15555555555556, "web_url": "https://weedmaps.com/deliveries/take-flight-la", "reviews_count": 45, "license type": "medical", "type": "delivery", "retailer_services": ["delivery"], "date scraped": "11012019"}, {"business name": "Scooters", "address": "11318 S. Vermont Ave", "longitude": -118.29136, "latitude": 33.93178, "state": "California", "city": "Los Angeles", "zip_code": "90044", "ranking": 4.923799633092753, "rating": 4.9392047321722, "web_url": "https://weedmaps.com/dispensaries/skooters", "reviews_count": 3043, "license type": "medical", "type": "dispensary", "retailer_services": ["storefront"], "date scraped": "11012019"}, {"business name": "OG Top Shop", "address": "8836 South Vermont", "longitude": -118.29137, "latitude": 33.95718, "state": "California", "city": "Los Angeles", "zip_code": "90044", "ranking": 4.915238282382491, "rating": 4.928, "web_url": "https://weedmaps.com/dispensaries/vermont-gas", "reviews_count": 3825, "license type": "medical", "type": "dispensary", "retailer_services": ["storefront"], "date scraped": "11012019"}, {"business name": "OMG Avalon 20 Cap Collective", "address": "8018 Avalon Blvd", "longitude": -118.264877, "latitude": 33.965903, "state": "CA", "city": "Los Angeles", "zip_code": "90003", "ranking": 4.87600688763608, "rating": 4.89898892633606, "web_url": "https://weedmaps.com/dispensaries/535-collective", "reviews_count": 2077, "license type": "medical", "type": "dispensary", "retailer_services": ["storefront"], "date scraped": "11012019"}, {"business name": "Loud 20 Cap", "address": "157-159 East Florence", "longitude": -118.272003, "latitude": 33.974956, "state": "CA", "city": "Los Angeles", "zip_code": "90003", "ranking": 4.85617259273397, "rating": 4.87333333333333, "web_url": "https://weedmaps.com/dispensaries/loud-30-cap-collective", "reviews_count": 3120, "license type": "medical", "type": "dispensary", "retailer_services": ["storefront"], "date scraped": "11012019"}, {"business name": "Vermont 30 Cap", "address": "8918 S Vermont Ave", "longitude": -118.29127, "latitude": 33.955963, "state": "California", "city": "Los Angeles", "zip_code": "90044", "ranking": 4.833164653822105, "rating": 4.86358754027927, "web_url": "https://weedmaps.com/dispensaries/vermont-30-cap", "reviews_count": 931, "license type": "medical", "type": "dispensary", "retailer_services": ["storefront"], "date scraped": "11012019"}, {"business name": "20 COLLECTIVE", "address": "1789 Firestone Blvd", "longitude": -118.240531, "latitude": 33.960331, "state": "CA", "city": "Los Angeles", "zip_code": "90001", "ranking": 4.807045081030766, "rating": 4.84417549167927, "web_url": "https://weedmaps.com/dispensaries/green-stock-20", "reviews_count": 661, "license type": "medical", "type": "dispensary", "retailer_services": ["storefront"], "date scraped": "11012019"}, {"business name": "LA Treehouse", "address": "1216 West Florence Ave", "longitude": -118.29693, "latitude": 33.974322, "state": "California", "city": "Los Angeles", "zip_code": "90044", "ranking": 4.48041346347707, "rating": 4.69827586206897, "web_url": "https://weedmaps.com/dispensaries/la-treehouse", "reviews_count": 116, "license type": "medical", "type": "dispensary", "retailer_services": ["storefront"], "date scraped": "11012019"}, {"business name": "Green Temple", "address": "7416 S Central Ave.", "longitude": -118.256251, "latitude": 33.972778, "state": "California", "city": "Los Angeles", "zip_code": "90001", "ranking": 4.44083490268415, "rating": 4.66666666666667, "web_url": "https://weedmaps.com/dispensaries/green-temple-compton", "reviews_count": 123, "license type": "medical", "type": "dispensary", "retailer_services": ["storefront"], "date scraped": "11012019"}, {"business name": "Green Garden Collective", "address": "11414 S Vermont Ave.", "longitude": -118.291258, "latitude": 33.930478, "state": "CA", "city": "Los Angeles", "zip_code": "90044", "ranking": 4.42230009237224, "rating": 4.5203426124197, "web_url": "https://weedmaps.com/dispensaries/green-garden-collective-3", "reviews_count": 467, "license type": "medical", "type": "dispensary", "retailer_services": ["storefront"], "date scraped": "11012019"}, {"business name": "The Originals Factory & Weed Shop", "address": "6500 Stanford Ave", "longitude": -118.26285, "latitude": 33.98087, "state": "California", "city": "Los Angeles", "zip_code": "90001", "ranking": 4.353411606092719, "rating": 4.68055555555556, "web_url": "https://weedmaps.com/dispensaries/the-originals-factory-weed-shop", "reviews_count": 72, "license type": "medical", "type": "dispensary", "retailer_services": ["storefront"], "date scraped": "11012019"}, {"business name": "Green Dream Caregivers 24 Hours", "address": "Normandie Ave", "longitude": -118.300026, "latitude": 33.978935, "state": "California", "city": "Los Angeles", "zip_code": "90044", "ranking": 4.288973278949062, "rating": 4.46818181818182, "web_url": "https://weedmaps.com/dispensaries/sepulveda-caregivers", "reviews_count": 220, "license type": "medical", "type": "dispensary", "retailer_services": ["storefront"], "date scraped": "11012019"}, {"business name": "Weed 4 Less 15 Cap", "address": "7500 S. Main St.", "longitude": -118.273791, "latitude": 33.972033, "state": "California", "city": "Los Angeles", "zip_code": "90003", "ranking": 4.180904165815679, "rating": 4.4, "web_url": "https://weedmaps.com/dispensaries/weed-4-less-15-cap", "reviews_count": 165, "license type": "medical", "type": "dispensary", "retailer_services": ["storefront"], "date scraped": "11012019"}, {"business name": "Central Hotbox", "address": "7616 South Central Avenue", "longitude": -118.256164, "latitude": 33.970961, "state": "California", "city": "Los Angeles", "zip_code": "90001", "ranking": 4.170293222269656, "rating": 4.52173913043478, "web_url": "https://weedmaps.com/dispensaries/central-hotbox", "reviews_count": 69, "license type": "medical", "type": "dispensary", "retailer_services": ["storefront"], "date scraped": "11012019"}, {"business name": "Puffy Delivery - Los Angeles", "address": "", "longitude": -118.256398, "latitude": 33.97477, "state": "California", "city": "Los Angeles", "zip_code": "90001", "ranking": 3.646054254722332, "rating": 3.86301369863014, "web_url": "https://weedmaps.com/deliveries/organix-simi-valley", "reviews_count": 219, "license type": "hybrid", "type": "delivery", "retailer_services": ["delivery"], "date scraped": "11012019"}, {"business name": "DOC420 South L.A.", "address": "Please visit our website: www.doc420.com", "longitude": -118.291603, "latitude": 33.960021, "state": "California", "city": "Los Angeles", "zip_code": "90044", "ranking": 4.68158063552875, "rating": 4.91208791208791, "web_url": "https://weedmaps.com/doctors/doc420-south-l-a", "reviews_count": 91, "license type": "medical", "type": "doctor", "retailer_services": ["doctor"], "date scraped": "11012019"}, {"business name": "420Recs.com- South La (100% Online)", "address": "420recs.com", "longitude": -118.273978, "latitude": 33.989486, "state": "ca", "city": "Los Angeles", "zip_code": "90037", "ranking": 3.12303065061999, "rating": 4.14, "web_url": "https://weedmaps.com/doctors/420recs-com-south-la", "reviews_count": 10, "license type": "medical", "type": "doctor", "retailer_services": ["doctor"], "date scraped": "11012019"}, {"business name": "420AvalonMD", "address": "603 E. 121th Street", "longitude": -118.264937, "latitude": 33.923061, "state": "CA", "city": "Los Angeles", "zip_code": "90059", "ranking": 4.240961094388643, "rating": 4.9578947368421, "web_url": "https://weedmaps.com/doctors/420avalonmd", "reviews_count": 19, "license type": "medical", "type": "doctor", "retailer_services": ["doctor"], "date scraped": "11012019"}]